{"type":"FeatureCollection", "features": [
{"type":"Feature","geometry":{"type":"Point","coordinates":[-4.727663600000003,41.65657550000001,0]},"properties":{"styleUrl":"#pointStyleMap","icon":"http://maps.google.com/mapfiles/kml/shapes/placemark_circle.png","direccion":"Pl. Sta. Brígida","cp":"47003","localidad":"Valladolid","convento":"Las Brígidas","uso":"Hotel","color":1}},
{"type":"Feature","geometry":{"type":"Point","coordinates":[-4.729466400000007,41.64977320000001,0]},"properties":{"styleUrl":"#pointStyleMap","icon":"http://maps.google.com/mapfiles/kml/shapes/placemark_circle.png","direccion":"C. de Santiago, 22","cp":"47001","localidad":"Valladolid","convento":"Las Francesas","uso":"Museo y viviendas","color":1}},
{"type":"Feature","geometry":{"type":"Point","coordinates":[-4.728943399999999,41.643902,0]},"properties":{"styleUrl":"#pointStyleMap","icon":"http://maps.google.com/mapfiles/kml/shapes/placemark_circle.png","direccion":"P.º de Filipinos, 5","cp":"47007","localidad":"Valladolid","convento":"Las Lauras","uso":"Hospital","color":1}},
{"type":"Feature","geometry":{"type":"Point","coordinates":[-4.730178999999994,41.65740690000001,0]},"properties":{"styleUrl":"#pointStyleMap","icon":"http://maps.google.com/mapfiles/kml/shapes/placemark_circle.png","direccion":"Plaza Trinidad, 2","cp":"47003","localidad":"Valladolid","convento":"San Quirce y Santa Julita","uso":"Residencia e iglesia","color":1}},
{"type":"Feature","geometry":{"type":"Point","coordinates":[-4.730409799999986,41.65620139999999,0]},"properties":{"styleUrl":"#pointStyleMap","icon":"http://maps.google.com/mapfiles/kml/shapes/placemark_circle.png","direccion":"C. de Santo Domingo de Guzman, 6","cp":"47003","localidad":"Valladolid","convento":"Santa Catalina","uso":"Museo y viviendas","color":1}},
{"type":"Feature","geometry":{"type":"Point","coordinates":[-4.71491409999998,41.65508829999998,0]},"properties":{"styleUrl":"#pointStyleMap","icon":"http://maps.google.com/mapfiles/kml/shapes/placemark_circle.png","direccion":"P.º Prado de la Magdalena, 10","cp":"47005","localidad":"Valladolid","convento":"Corpus Christi","uso":"Residencia y hotel","color":1}},
{"type":"Feature","geometry":{"type":"Point","coordinates":[-4.725104100000019,41.65121679999999,0]},"properties":{"styleUrl":"#pointStyleMap","icon":"http://maps.google.com/mapfiles/kml/shapes/placemark_circle.png","direccion":"Pl. del Salvador, 2","cp":"47002","localidad":"Valladolid","convento":"Conventro de las Esclavas","uso":"Residencia e iglesia","color":1}},
{"type":"Feature","geometry":{"type":"Point","coordinates":[-4.7210839,41.6561135,0]},"properties":{"styleUrl":"#pointStyleMap","icon":"http://maps.google.com/mapfiles/kml/shapes/placemark_circle.png","direccion":"Av. Ramón y Cajal, 4","cp":"47003","localidad":"Valladolid","convento":"Descalzas Reales","uso":"Sin uso","color":1}},
{"type":"Feature","geometry":{"type":"Point","coordinates":[-4.727646200000002,41.65161560000002,0]},"properties":{"styleUrl":"#pointStyleMap","icon":"http://maps.google.com/mapfiles/kml/shapes/placemark_circle.png","direccion":"Pl. Mayor, 6","cp":"47001","localidad":"Valladolid","convento":"San Francisco","uso":"Viviendas","color":1}},
{"type":"Feature","geometry":{"type":"Point","coordinates":[-4.729153999999998,41.6538094,0]},"properties":{"styleUrl":"#pointStyleMap","icon":"http://maps.google.com/mapfiles/kml/shapes/placemark_circle.png","direccion":"C. San Benito, 5","cp":"47003","localidad":"Valladolid","convento":"Monasterio de San Benito","uso":"Municipal, museo y convento","color":3}},
{"type":"Feature","geometry":{"type":"Point","coordinates":[-4.7457359,41.6405078,0]},"properties":{"styleUrl":"#msn_placemark_circle","icon":"http://maps.google.com/mapfiles/kml/shapes/placemark_circle.png","direccion":"Av. del Real , s/n","cp":"47014","localidad":"Valladolid","convento":"Monasterio de Nuestra Señora de Prado","uso":"Junta de Castilla y León","color":1}},
{"type":"Feature","geometry":{"type":"Point","coordinates":[-4.731085999999999,41.65546450000001,0]},"properties":{"styleUrl":"#pointStyleMap","icon":"http://maps.google.com/mapfiles/kml/shapes/placemark_circle.png","direccion":"C. de Santo Domingo de Guzman, 8","cp":"47003","localidad":"Valladolid","convento":"Convento de San Agustín","uso":"Archivo Municipal","color":1}},
{"type":"Feature","geometry":{"type":"Point","coordinates":[-4.718829199999997,41.65309660000001,0]},"properties":{"styleUrl":"#pointStyleMap","icon":"http://maps.google.com/mapfiles/kml/shapes/placemark_circle.png","direccion":"C. de Juan Mambrilla, 33","cp":"47003","localidad":"Valladolid","convento":"Salesas","uso":"Convento","color":2}},
{"type":"Feature","geometry":{"type":"Point","coordinates":[-4.73120119999998,41.65115140000002,0]},"properties":{"styleUrl":"#pointStyleMap","icon":"http://maps.google.com/mapfiles/kml/shapes/placemark_circle.png","direccion":"Pl. Sta. Ana, 4","cp":"47001","localidad":"Valladolid","convento":"Santa Ana","uso":"Convento","color":2}},
{"type":"Feature","geometry":{"type":"Point","coordinates":[-4.725984899999995,41.65025620000001,0]},"properties":{"styleUrl":"#pointStyleMap","icon":"http://maps.google.com/mapfiles/kml/shapes/placemark_circle.png","direccion":"C. de Teresa Gil, 18","cp":"47002","localidad":"Valladolid","convento":"Porta Coeli","uso":"Convento","color":2}},
{"type":"Feature","geometry":{"type":"Point","coordinates":[-4.731085999999999,41.65546450000001,0]},"properties":{"styleUrl":"#pointStyleMap","icon":"http://maps.google.com/mapfiles/kml/shapes/placemark_circle.png","direccion":"C. de Santo Domingo de Guzman, 8","cp":"47003","localidad":"Valladolid","convento":"Santa Isabel","uso":"Convento","color":2}},
{"type":"Feature","geometry":{"type":"Point","coordinates":[-4.727976500000013,41.65557330000002,0]},"properties":{"styleUrl":"#pointStyleMap","icon":"http://maps.google.com/mapfiles/kml/shapes/placemark_circle.png","direccion":"C. Concepción, 4","cp":"47003","localidad":"Valladolid","convento":"Concepcionistas","uso":"Convento","color":2}},
{"type":"Feature","geometry":{"type":"Point","coordinates":[-4.716611499999996,41.6538094,0]},"properties":{"styleUrl":"#pointStyleMap","icon":"http://maps.google.com/mapfiles/kml/shapes/placemark_circle.png","direccion":"Av. Ramón y Cajal, 4A","cp":"47005","localidad":"Valladolid","convento":"Huelgas Reales","uso":"Convento","color":2}},
{"type":"Feature","geometry":{"type":"Point","coordinates":[-4.727375399999998,41.65978390000001,0]},"properties":{"styleUrl":"#pointStyleMap","icon":"http://maps.google.com/mapfiles/kml/shapes/placemark_circle.png","direccion":"C. Rondilla Sta. Teresa, 28","cp":"47010","localidad":"Valladolid","convento":"Santa Teresa","uso":"Convento","color":2}},
{"type":"Feature","geometry":{"type":"Point","coordinates":[-4.720018699999995,41.6590327,0]},"properties":{"styleUrl":"#pointStyleMap","icon":"http://maps.google.com/mapfiles/kml/shapes/placemark_circle.png","direccion":"C. de Sta. Clara, 25","cp":"47010","localidad":"Valladolid","convento":"Santa Clara","uso":"Convento","color":2}}
]}