{"type":"FeatureCollection","features":[{"type":"Feature","properties":{"direccion":"Calle Veinte Metros, 31 - Bajo","nombre":"Asociación Casa de la Santidad","tipo":"Iglesia Evangélica","color":1},"geometry":{"coordinates":[-4.715144728836094,41.64908697465421],"type":"Point"},"id":0},{"type":"Feature","properties":{"direccion":"Calle Arribas, 1","nombre":"Catedral Nuestra Señora de la Asunción","tipo":"Iglesia Católica","color":2},"geometry":{"coordinates":[-4.723631457671786,41.65252804117745],"type":"Point"},"id":1},{"type":"Feature","properties":{},"geometry":{"coordinates":[-4.728967813491153,41.65673010367183],"type":"Point"},"id":2},{"type":"Feature","properties":{},"geometry":{"coordinates":[-4.649475795087824,41.643348608293536],"type":"Point"},"id":3},{"type":"Feature","properties":{"direccion":"Calle Unión, 5","nombre":"Comunidad Cristiana del Camino de Vida","tipo":"Iglesia Evangélica","color":1},"geometry":{"coordinates":[-4.714226271163085,41.649267974687575],"type":"Point"},"id":4},{"type":"Feature","properties":{"direccion":"Calle Juan García Hortelano 41, local 10","nombre":"Comunidad Fe Bahá'í","tipo":"Fe Bahá'í","color":5},"geometry":{"coordinates":[-4.765704000001364,41.63699391719999],"type":"Point"},"id":5},{"type":"Feature","properties":{"direccion":"Calle Cádiz, 1","nombre":"Comunidad Islámica de Valladolid","tipo":"Islam","color 4":""},"geometry":{"coordinates":[-4.714475728835623,41.643732061479426],"type":"Point"},"id":6},{"type":"Feature","properties":{"direccion":"Calle Rincón de la Esgueva 11, Bajo","nombre":"Comunidad Islámica de Valladolid SALAM (Paz)","tipo":"Islam","color":4},"geometry":{"coordinates":[-4.709807457672412,41.65006705872102],"type":"Point"},"id":7},{"type":"Feature","properties":{"direccion":"Plaza de Los Arces, 1 - 1º","nombre":"Dojo Zen de Valladolid","tipo":"Dojo Zen","color 5":""},"geometry":{"coordinates":[-4.727519542330043,41.654456121747984],"type":"Point"},"id":8},{"type":"Feature","properties":{"direccion":"Plaza León Felipe 6, bajo","nombre":"Iglesia Antigua de los Mártires / Anglicana","tipo":"Iglesia Evangélica","color":1},"geometry":{"coordinates":[-4.715396813492191,41.641572080256026],"type":"Point"},"id":9},{"type":"Feature","properties":{"direccion":"Calle Amadeo Arias, 24","nombre":"Iglesia Bautista Independiente Faro de Luz","tipo":"Iglesia Evangélica","color":1},"geometry":{"coordinates":[-4.759518813492946,41.63667800922184],"type":"Point"},"id":10},{"type":"Feature","properties":{"direccion":"Carretera de Rueda, 56","nombre":"Iglesia Cristiana del Centro Bíblico (Valladolid)","tipo":"Iglesia Evangélica","color":1},"geometry":{"coordinates":[-4.742504999999483,41.623571110411206],"type":"Point"},"id":11},{"type":"Feature","properties":{"direccion":"Calle Domingo Martínez, 27","nombre":"Iglesia Cristiana Evangélica en Medina del Campo","tipo":"Iglesia Evangélica","color":1},"geometry":{"coordinates":[-4.7348735423287565,41.63849910019806],"type":"Point"},"id":12},{"type":"Feature","properties":{"direccion":"Calle de Daniel del Olmo González, 4","nombre":"Iglesia Cuerpo de Cristo (REMAR)","tipo":"Iglesia Evangélica","color":1},"geometry":{"coordinates":[-4.735265271164252,41.62801504880164],"type":"Point"},"id":13},{"type":"Feature","properties":{"direccion":"Calle Metal, 10","nombre":"Iglesia de Dios P. A. Vino Nuevo","tipo":"Iglesia Evangélica","color":1},"geometry":{"coordinates":[-4.733666271165021,41.62913120354921],"type":"Point"},"id":14},{"type":"Feature","properties":{"direccion":"Calle Costa Rica, 2 - 1ª Planta","nombre":"Iglesia Evangélica \"La Roca\" de Valladolid","tipo":"Iglesia Evangélica","color":1},"geometry":{"coordinates":[-4.747166457672364,41.632409047435004],"type":"Point"},"id":15},{"type":"Feature","properties":{"direccion":"Calle Linares, 18","nombre":"Iglesia Evangélica Agua Viva","tipo":"Iglesia Evangélica","color":1},"geometry":{"coordinates":[-4.71996472883626,41.66127009999991],"type":"Point"},"id":16},{"type":"Feature","properties":{"direccion":"Calle Olmedo, 38","nombre":"Iglesia Evangélica Asamblea de Hermanos","tipo":"Iglesia Evangélica","color":1},"geometry":{"coordinates":[-4.71908191534601,41.63843995444688],"type":"Point"},"id":17},{"type":"Feature","properties":{"direccion":"Calle Casa Alegre, 25","nombre":"Iglesia Evangélica Filadelfia","tipo":"Iglesia Evangélica","color":1},"geometry":{"coordinates":[-4.7298168134924765,41.62995000964048],"type":"Point"},"id":18},{"type":"Feature","properties":{"direccion":"Calle Celtas Cortos","nombre":"Iglesia Evangélica Filadelfia","tipo":"Iglesia Evangélica","color":1},"geometry":{"coordinates":[-4.7199684775140724,41.63641333706721],"type":"Point"},"id":19},{"type":"Feature","properties":{"direccion":"Calle Morral","nombre":"Iglesia Evangélica Filadelfia \"Templo Grande","tipo":"Iglesia Evangélica","color":1},"geometry":{"coordinates":[-4.699174000000596,41.644793061018476],"type":"Point"},"id":20},{"type":"Feature","properties":{"direccion":"Calle Urraca","nombre":"Iglesia Evangélica Filadelfia/Artistas o San Isidro","tipo":"Iglesia Evangélica","color":1},"geometry":{"coordinates":[-4.71386699999988,41.64574293940851],"type":"Point"},"id":21},{"type":"Feature","properties":{"direccion":"Calle Petunia, 16 - Local","nombre":"Iglesia Evangélica Filadelfia/Barrio de las Flores","tipo":"Iglesia Evangélica","color":1},"geometry":{"coordinates":[-4.69741172883559,41.64117409836757],"type":"Point"},"id":22},{"type":"Feature","properties":{"direccion":"Calle de la Zanfona, - Nave 23-28","nombre":"Iglesia Evangélica Filadelfia/Barrio Delicias","tipo":"Iglesia Evangélica","color":1},"geometry":{"coordinates":[-4.648373000000731,41.64161300891473],"type":"Point"},"id":23},{"type":"Feature","properties":{"direccion":"Calle Alcarria, 9","nombre":"Iglesia Evangélica Filadelfia/Barrio España","tipo":"Iglesia Evangélica","color":1},"geometry":{"coordinates":[-4.712902728835985,41.66662403679027],"type":"Point"},"id":24},{"type":"Feature","properties":{"direccion":"Calle Minutisa, 2 - Nave 4","nombre":"Iglesia Evangélica Filadelfia/Belén","tipo":"Iglesia Evangélica","color":1},"geometry":{"coordinates":[-4.699141915343404,41.64587900864814],"type":"Point"},"id":25},{"type":"Feature","properties":{"direccion":"Calle Espíritu Santo, 9","nombre":"Iglesia Evangélica Filadelfia/Casa de Dios","tipo":"Iglesia Evangélica","color":1},"geometry":{"coordinates":[-4.735983457671239,41.64551902601252],"type":"Point"},"id":26},{"type":"Feature","properties":{"direccion":"Calle del Rastrojo, 5","nombre":"Iglesia Evangélica Filadelfia/Gavilla","tipo":"Iglesia Evangélica","color":1},"geometry":{"coordinates":[-4.744378728834647,41.6515530414799],"type":"Point"},"id":27},{"type":"Feature","properties":{"direccion":"Calle Hermanos Cossío, 9","nombre":"Iglesia Evangélica","color":1},"geometry":{"coordinates":[-4.740952084654964,41.6450000261101],"type":"Point"},"id":28},{"type":"Feature","properties":{"direccion":"Calle Alférez Provisional, 4","nombre":"Iglesia Evangélica Filadelfia/Iglesia La Paz","tipo":"Iglesia Evangélica","color":1},"geometry":{"coordinates":[-4.72644799999992,41.62898993211272],"type":"Point"},"id":29},{"type":"Feature","properties":{"direccion":"Calle Pilarica, 64","nombre":"Iglesia Evangélica Filadelfia/Nacidos de Cristo","tipo":"Iglesia Evangélica","color":1},"geometry":{"coordinates":[-4.704419169312104,41.65309600819961],"type":"Point"},"id":30},{"type":"Feature","properties":{"direccion":"Calle del Puente la Reina, 24","nombre":"Iglesia Evangélica Filadelfia/Nueva Vida","tipo":"Iglesia Evangélica","color":1},"geometry":{"coordinates":[-4.7063672711642255,41.65160104146406],"type":"Point"},"id":31},{"type":"Feature","properties":{"direccion":"Calle Cañada de Fuente Amarga","nombre":"Iglesia Evangélica Filadelfia/Rancho","tipo":"Iglesia Evangélica","color":1},"geometry":{"coordinates":[-4.7031507288370165,41.63661702767436],"type":"Point"},"id":32},{"type":"Feature","properties":{"direccion":"Calle Cisne, 7","nombre":"Iglesia Evangélica Filadelfia/Rincón de Dios","tipo":"Iglesia Evangélica","color":1},"geometry":{"coordinates":[-4.709017915346436,41.65025404188401],"type":"Point"},"id":33},{"type":"Feature","properties":{"direccion":"Calle Júpiter, 7","nombre":"Iglesia Evangélica Filadelfia/Vitoria","tipo":"Iglesia Evangélica","color":1},"geometry":{"coordinates":[-4.737361728836163,41.661654023002484],"type":"Point"},"id":34},{"type":"Feature","properties":{"direccion":"Calle Ecuador","nombre":"Iglesia Evangélica Filadelfia/Zona Azul","tipo":"Iglesia Evangélica","color":1},"geometry":{"coordinates":[-4.7468881865094374,41.63076302876715],"type":"Point"},"id":35},{"type":"Feature","properties":{"direccion":"Calle Industrias, 34","nombre":"Iglesia Evangélica La Paz","tipo":"Iglesia Evangélica","color":1},"geometry":{"coordinates":[-4.773856186506521,41.625541069400754],"type":"Point"},"id":36},{"type":"Feature","properties":{"direccion":"Calle de San Isidro, 34","nombre":"Iglesia Evangélica Metanoya","tipo":"Iglesia Evangélica","color":1},"geometry":{"coordinates":[-4.713323186508859,41.64270597346342],"type":"Point"},"id":37},{"type":"Feature","properties":{"direccion":"Calle Bronce, 6 - Nave 6","nombre":"Iglesia Evangélica Torre Fuerte","tipo":"Iglesia Evangélica","color":1},"geometry":{"coordinates":[-4.738210607341074,41.617026097007994],"type":"Point"},"id":38},{"type":"Feature","properties":{"direccion":"Calle Eucaliptos, 14 - Bajo 4","nombre":"Iglesia Pentecostal Unida Tabernáculo de Fé","tipo":"Iglesia Evangélica","color":1},"geometry":{"coordinates":[-4.7522495423276325,41.66168617635407],"type":"Point"},"id":39},{"type":"Feature","properties":{"direccion":"Calle López Gómez, 20","nombre":"Instituto Gnóstico de Antropología Samael y Litelantes","tipo":"Instituto Gnóstico de Antropología Samael y Litelantes","color":5},"geometry":{"coordinates":[-4.723270271165461,41.6507160751371],"type":"Point"},"id":40},{"type":"Feature","properties":{"direccion":"Calle del León, 3","nombre":"La Iglesia de Jesucristo de los Santos de los Últimos Días","tipo":"La Iglesia de Jesucristo de los Santos de los Últimos Días","color":5},"geometry":{"coordinates":[-4.726555813492581,41.655905008025144],"type":"Point"},"id":41},{"type":"Feature","properties":{"direccoin":"Calle Metal, 6","nombre":"La Vid Iglesia en Células","tipo":"Iglesia Evangélica","color":1},"geometry":{"coordinates":[-4.73416508465607,41.629325145199914],"type":"Point"},"id":42},{"type":"Feature","properties":{"direccoin":"Calle Conde de Benavente, 2","nombre":"Lectorium Rosicrucianum","tipo":"Gnósticos Rosacruz Aurea (Lectorium Rosicrucianum)","color":5},"geometry":{"coordinates":[-4.730760813490662,41.65826599212261],"type":"Point"},"id":43},{"type":"Feature","properties":{"direccion":"Calle Celtas Cortos, 12","nombre":"Mezquita Al Iman Malek","tipo":"Islam","color":4},"geometry":{"coordinates":[-4.720129271162989,41.63659204613276],"type":"Point"},"id":44},{"type":"Feature","properties":{"direccion":"Calle Pilar Miró, 1 - Nave 20","nombre":"Ministerio Nueva Alianza","tipo":"Iglesia Evangélica","color":1},"geometry":{"coordinates":[-4.7351803558202334,41.62949300966807],"type":"Point"},"id":45},{"type":"Feature","properties":{"direccion":"Calle Mirabel, 9 - Bajo","nombre":"Movimiento Cristiano Misionero Maranatha","tipo":"Iglesia Evangélica","color":1},"geometry":{"coordinates":[-4.725860271165317,41.66199294648638],"type":"Point"},"id":46},{"type":"Feature","properties":{"direccion":"Calle Campo Charro, 2","nombre":"Parroquia Beato Florentino Asensio","tipo":"Iglesia Ctólica","color":2},"geometry":{"coordinates":[-4.745294728836058,41.61861696896858],"type":"Point"},"id":47},{"type":"Feature","properties":{"direccion":"Calle Federico Landrove Moiño, 2","nombre":"Parroquia Cristo Redentor","tipo":"Iglesia Católica","color":2},"geometry":{"coordinates":[-4.7561684576725725,41.6330671984085],"type":"Point"},"id":48},{"type":"Feature","properties":{"direccion":"Calle Canterac, 22","nombre":"Parroquia Dulce Nombre de María","tipo":"Iglesia Católica","color":2},"geometry":{"coordinates":[-4.719678457672501,41.641033062654884],"type":"Point"},"id":49},{"type":"Feature","properties":{"direccion":"Paseo de Zorrilla, 27","nombre":"Parroquia Inmaculada Concepción de María","tipo":"Iglesia Católica","color":2},"geometry":{"coordinates":[-4.745445999999731,41.62589802967457],"type":"Point"},"id":50},{"type":"Feature","properties":{"direccion":"Calle Padre Claret, 3","nombre":"Parroquia Inmaculado Corazón de María","tipo":"Iglesia Católica","color":2},"geometry":{"coordinates":[-4.717206728834867,41.646702111784464],"type":"Point"},"id":51},{"type":"Feature","properties":{"direccion":"Calle Pajarillos, 1","nombre":"Parroquia María Auxiliadora","tipo":"Iglesia Católica","color":2},"geometry":{"coordinates":[-4.703582542329656,41.646420439674756],"type":"Point"},"id":52},{"type":"Feature","properties":{"direccion":"Calle Algeciras, 10","nombre":"Parroquia María Milagrosa","tipo":"Iglesia Católica","color":2},"geometry":{"coordinates":[-4.714571728836717,41.6428440618663],"type":"Point"},"id":53},{"type":"Feature","properties":{"direccion":"Calle Doce de Octubre, 22","nombre":"Parroquia Nuestra Señora de Belén","tipo":"Iglesia Católica","color":2},"geometry":{"coordinates":[-4.709991728838418,41.655650975879865],"type":"Point"},"id":54},{"type":"Feature","properties":{"direccion":"Av. Santander, 14","nombre":"Parroquia Nuestra Señora de Fátima","tipo":"Iglesia Católica","color":2},"geometry":{"coordinates":[-4.714320898148372,41.66354011326763],"type":"Point"},"id":55},{"type":"Feature","properties":{"direccion":"Calle Villacarralón, 15","nombre":"Parroquia Nuestra Señora de Guadalupe","tipo":"Iglesia Católica","color":2},"geometry":{"coordinates":[-4.754658271163748,41.61994611289208],"type":"Point"},"id":56},{"type":"Feature","properties":{"direccion":"Calle Saturno, 21","nombre":"Parroquia Nuestra Señora de la Merced","tipo":"Iglesia Católica","color":2},"geometry":{"coordinates":[-4.737203813489117,41.665922007400496],"type":"Point"},"id":57},{"type":"Feature","properties":{"direccion":"Calle Dársena, 4bis","nombre":"Parroquia Nuestra Señora de la Victoria","tipo":"Iglesia Católica","color":2},"geometry":{"coordinates":[-4.735748457670439,41.66371712818827],"type":"Point"},"id":58},{"type":"Feature","properties":{"direccion":"Calle Adolfo Miaja de la Muela, 2","nombre":"Parroquia Nuestra Señora de Prado","tipo":"Iglesia Católica","color":2},"geometry":{"coordinates":[-4.757200101852561,41.64072995515963],"type":"Point"},"id":59},{"type":"Feature","properties":{"direccion":"Avda Segovia, 133","nombre":"Parroquia Nuestra Señora del Carmen","tipo":"Iglesia Católica","color":2},"geometry":{"coordinates":[-4.721407728835175,41.63589810197783],"type":"Point"},"id":60},{"type":"Feature","properties":{"direccion":"Calle Trilla, 1","nombre":"Parroquia Nuestra Señora del Henar","tipo":"Iglesia Católica","color":2},"geometry":{"coordinates":[-4.737309813491748,41.658329070873805],"type":"Point"},"id":61},{"type":"Feature","properties":{"direccion":"Calle Calatrava, 4","nombre":"Parroquia Nuestra Señora del Pilar","tipo":"Iglesia Católica","color":2},"geometry":{"coordinates":[-4.70894964418099,41.651840074507334],"type":"Point"},"id":62},{"type":"Feature","properties":{"direccion":"Ctra Rueda, 19","nombre":"Parroquia Nuestra Señora del Rosario","tipo":"Iglesia Católica","color":2},"geometry":{"coordinates":[-4.741806768712166,41.62804585470104],"type":"Point"},"id":63},{"type":"Feature","properties":{"direccion":"Calle Lagunas de Villafáfila, 4","nombre":"Parroquia Nuestra Señora del Sagrado Corazón","tipo":"Iglesia Católica","color":2},"geometry":{"coordinates":[-4.714908355821109,41.62648506898907],"type":"Point"},"id":64},{"type":"Feature","properties":{"direccion":"Calle Divina Pastora, 3","nombre":"Parroquia Ortodoxa de los Santos Joaquín y Santa Ana","tipo":"Iglesia Ortodoxa","color":6},"geometry":{"coordinates":[-4.724777728838291,41.6482300085039],"type":"Point"},"id":65},{"type":"Feature","properties":{"direccion":"Calle del Cardenal Torquemada, 20-22, Valladolid, Valladolid","nombre":"Parroquia Ortodoxa Rumana San Gregorio el Teólogo","tipo":"Iglesia Ortodoxa","color":6},"geometry":{"coordinates":[-4.722015813490344,41.66302506824155],"type":"Point"},"id":66},{"type":"Feature","properties":{"direccion":"Calle Capuchinos, 11","nombre":"Parroquia Sagrada Familia","tipo":"Iglesia Católica","color":2},"geometry":{"coordinates":[-4.737237271164901,41.64492811321861],"type":"Point"},"id":67},{"type":"Feature","properties":{"direccion":"Paseo Filipinos, 7","nombre":"Parroquia San Agustín","tipo":"Iglesia Católica","color":2},"geometry":{"coordinates":[-4.729774355818705,41.64421602625575],"type":"Point"},"id":68},{"type":"Feature","properties":{"direccion":"Plaza San Andrés, 2","nombre":"Parroquia San Andrés Apóstol","tipo":"Iglesia Católica","color":2},"geometry":{"coordinates":[-4.721721542328453,41.64816709358033],"type":"Point"},"id":69},{"type":"Feature","properties":{"direccion":"Calle Amor de Dios, 33","nombre":"Parroquia San Fernando","tipo":"Iglesia Católica","color":2},"geometry":{"coordinates":[-4.718016542328371,41.66258806848637],"type":"Point"},"id":70},{"type":"Feature","properties":{"direccion":"Plaza San Francisco de Asís, 1","nombre":"Parroquia San Francisco de Asís","tipo":"Iglesia Católica","color":2},"geometry":{"coordinates":[-4.725483915344029,41.62724110790009],"type":"Point"},"id":71},{"type":"Feature","properties":{"direccion":"Calle Cisne, 2","nombre":"Parroquia San Ignacio de Loyola","tipo":"Iglesia Católica","color":2},"geometry":{"coordinates":[-4.708806271162331,41.65004197483228],"type":"Point"},"id":72},{"type":"Feature","properties":{"direccion":"Calle San Ildefonso, 7","nombre":"Parroquia San Ildefonso","tipo":"Iglesia Católica","color":2},"geometry":{"coordinates":[-4.732015457672816,41.648059076624975],"type":"Point"},"id":73},{"type":"Feature","properties":{"direccion":"Calle Cigüeña, 8","nombre":"Parroquia San Isidro Labrador","tipo":"Iglesia Católica","color":2},"geometry":{"coordinates":[-4.712984271163606,41.644460131076556],"type":"Point"},"id":74},{"type":"Feature","properties":{"direccion":"Avda Santander, 14","nombre":"Parroquia San José Obrero","tipo":"Iglesia Católica","color":2},"geometry":{"coordinates":[-4.714449644181229,41.6635080528645],"type":"Point"},"id":75},{"type":"Feature","properties":{"direccion":"Calle Bautismo, 13","nombre":"Parroquia San Juan Bautista","tipo":"Iglesia Católica","color":2},"geometry":{"coordinates":[-4.716571728834964,41.650594142070645],"type":"Point"},"id":76},{"type":"Feature","properties":{"direccion":"Calle Pedro Niño, 2","nombre":"Parroquia San Lorenzo","tipo":"Iglesia Católica","color":2},"geometry":{"coordinates":[-4.73188968118987,41.651500760657996],"type":"Point"},"id":77},{"type":"Feature","properties":{"direccion":"Calle San Martín, 12","nombre":"Parroquia San Martín y San Benito El Viejo","tipo":"Iglesia Católica","color":2},"geometry":{"coordinates":[-4.722340271163915,41.65603212027801],"type":"Point"},"id":78},{"type":"Feature","properties":{"direccion":"Plaza Doctor Quemada, 6","nombre":"Parroquia San Mateo y Santo Domingo","tipo":"Iglesia Católica","color":2},"geometry":{"coordinates":[-4.741327271164067,41.633662103508755],"type":"Point"},"id":79},{"type":"Feature","properties":{"direccion":"Calle Concepción, 3","nombre":"Parroquia San Miguel y San Julián","tipo":"Iglesia Católica","color":2},"geometry":{"coordinates":[-4.728081728834923,41.65520291126492],"type":"Point"},"id":80},{"type":"Feature","properties":{"direccion":"Calle Puente Mayor, 1","nombre":"Parroquia San Nicolás de Bari","tipo":"Iglesia Católica","color":2},"geometry":{"coordinates":[-4.730772170639568,41.65827904981853],"type":"Point"},"id":81},{"type":"Feature","properties":{"direccion":"Calle Juaquín Velasco Martín, 19-21","nombre":"Parroquia San Pascual Bailón","tipo":"Iglesia Católica","color":2},"geometry":{"coordinates":[-4.7383495423282795,41.64901900845251],"type":"Point"},"id":82},{"type":"Feature","properties":{"direccion":"Calle Real de Burgos, 10","nombre":"Parroquia San Pedro Apóstol","tipo":"Iglesia Católica","color":2},"geometry":{"coordinates":[-4.71800272883533,41.65747716651535],"type":"Point"},"id":83},{"type":"Feature","properties":{"direccion":"Plaza Porticada, 41","nombre":"Parroquia San Pio X","tipo":"Iglesia Católica","color":2},"geometry":{"coordinates":[-4.746570457671453,41.65762402375327],"type":"Point"},"id":84},{"type":"Feature","properties":{"direccion":"Calle Calixto Valverde, 2","nombre":"Parroquia San Ramón Nonato","tipo":"Iglesia Católica","color":2},"geometry":{"coordinates":[-4.735658644180148,41.652360123705705],"type":"Point"},"id":85},{"type":"Feature","properties":{"direccion":"Calle Pío Baroja, 9-11","nombre":"Parroquia San Simón de Rojas","tipo":"Iglesia Católica","color":2},"geometry":{"coordinates":[-4.7541780823749775,41.61217743413462],"type":"Point"},"id":86},{"type":"Feature","properties":{"direccion":"Calle Pío del Río Hortega, 6","nombre":"Parroquia San Vicente de Paúl","tipo":"Iglesia Católica","color":2},"geometry":{"coordinates":[-4.7399499243610705,41.65379398428732],"type":"Point"},"id":87},{"type":"Feature","properties":{"direccion":"Calle Santa Clara, 25","nombre":"Parroquia Santa Clara de Asís","tipo":"Iglesia Católica","color":2},"geometry":{"coordinates":[-4.72078827116448,41.65934805467799],"type":"Point"},"id":88},{"type":"Feature","properties":{"direccion":"Calle Arzobispo Gandásegui","nombre":"Parroquia Santa María de La Antigua","tipo":"Iglesia Católica","color":2},"geometry":{"coordinates":[-4.723138644179215,41.65354199182855],"type":"Point"},"id":89},{"type":"Feature","properties":{"direccion":"Calle Colón, 20","nombre":"Parroquia Santa María Magdalena","tipo":"Iglesia Católica","color":2},"geometry":{"coordinates":[-4.717668915343552,41.65387705706095],"type":"Point"},"id":90},{"type":"Feature","properties":{"direccion":"Calle Doctor Montero, 11","nombre":"Parroquia Santa María Micaela","tipo":"Iglesia Católica","color":2},"geometry":{"coordinates":[-4.714552000000168,41.651138091547466],"type":"Point"},"id":91},{"type":"Feature","properties":{"direccion":"Calle Bolivia, 2","nombre":"Parroquia Santa Rosa de Lima","tipo":"Iglesia Católica","color":2},"geometry":{"coordinates":[-4.750421186508447,41.63276897160938],"type":"Point"},"id":92},{"type":"Feature","properties":{"direccion":"Calle Cardenal Torquemada, 20 - 1ºA y B","nombre":"Parroquia Santa Teresa de Jesús","tipo":"Iglesia Católica","color":2},"geometry":{"coordinates":[-4.724279133259927,41.66090500185072],"type":"Point"},"id":93},{"type":"Feature","properties":{"direccion":"Calle Atrio de Santiago, 2","nombre":"Parroquia Santiago Apóstol","tipo":"Iglesia Católica","color":2},"geometry":{"coordinates":[-4.728936271163036,41.650609058485514],"type":"Point"},"id":94},{"type":"Feature","properties":{"direccion":"Plaza Salvador","nombre":"Parroquia Santísimo Salvador","tipo":"Iglesia Católica","color":2},"geometry":{"coordinates":[-4.725044271162744,41.65069087479307],"type":"Point"},"id":95},{"type":"Feature","properties":{"direccion":"Calle Álvarez Taladriz, 15","nombre":"Parroquia Santo Tomás de Aquino","tipo":"Iglesia Católica","color":2},"geometry":{"coordinates":[-4.735155186508166,41.63751395415906],"type":"Point"},"id":96},{"type":"Feature","properties":{"direccoin":"Calle Hornija, 6","nombre":"Parroquia Santo Toribio de Mogrovejo","tipo":"Iglesia Católica","color":2},"geometry":{"coordinates":[-4.7234614576713625,41.63370399059585],"type":"Point"},"id":97},{"type":"Feature","properties":{"direccion":"Calle Ecuador, 17 - Local 22","nombre":"Primera Iglesia Evangélica Bautista","tipo":"Iglesia Evangélica","color":1},"geometry":{"coordinates":[-4.7464959999987,41.630417048053715],"type":"Point"},"id":98},{"type":"Feature","properties":{"direccion":"Calle de Miguel de Unamuno, 104","nombre":"Salón del Reino de los Testigos Cristianos de Jehová","tipo":"Testigos de Jehová","color":7},"geometry":{"coordinates":[-4.754094813492657,41.60975207627234],"type":"Point"},"id":99},{"type":"Feature","properties":{"direccion":"Calle de Santa María de la Cabeza, 26","nombre":"Salón del Reino de los Testigos Cristianos de Jehová","tipo":"Testigos de Jehová","color":7},"geometry":{"coordinates":[-4.700001355818557,41.64587804324506],"type":"Point"},"id":100}]}